{"type":"FeatureCollection","features":[{"type":"Feature","geometry":{"type":"LineString","coordinates":[[-3.188396,55.944425],[-3.1881362,55.944575],[-3.1878764,55.944725],[-3.1877738,55.9444431],[-3.1876712,55.9441612],[-3.1875212,55.9439014],[-3.1873712,55.9436416],[-3.1871414,55.9438344],[-3.1868595,55.943937],[-3.1865775,55.9440396],[-3.1862956,55.9441422],[-3.186193,55.9444241],[-3.1864228,55.944617],[-3.1865254,55.9448989],[-3.1867183,55.9451287],[-3.1868683,55.9453885],[-3.1867183,55.9451287],[-3.1865254,55.9448989],[-3.1867183,55.9446691],[-3.1864228,55.944617],[-3.186193,55.9444241],[-3.1860904,55.9441422],[-3.1859404,55.9438824],[-3.1858378,55.9436005],[-3.1857352,55.9433186],[-3.1856326,55.9430367],[-3.1853728,55.9431867],[-3.185113,55.9433367],[-3.1848832,55.9431439],[-3.1847806,55.9434258],[-3.184678,55.9437077],[-3.1846259,55.9440031],[-3.1846259,55.9443031],[-3.1845738,55.9445986],[-3.1845738,55.9448986],[-3.1845217,55.945194],[-3.1847815,55.945344],[-3.1850413,55.945494],[-3.1853232,55.9455966],[-3.185583,55.9457466],[-3.1857758,55.9459764],[-3.1860758,55.9459764],[-3.1863713,55.9459243],[-3.1866713,55.9459243],[-3.1869667,55.9458722],[-3.1872667,55.9458722],[-3.1875622,55.9458201],[-3.1878622,55.9458201],[-3.1881576,55.945768],[-3.1884576,55.945768],[-3.1886874,55.9455752],[-3.1889829,55.9456273],[-3.1892829,55.9456273],[-3.1892308,55.9453319],[-3.1891787,55.9450364],[-3.1894385,55.9451864],[-3.1896683,55.9453793],[-3.1899281,55.9455293],[-3.1899281,55.9458293],[-3.1899802,55.9461247],[-3.1902621,55.9460221],[-3.190544,55.9459195],[-3.1908259,55.9458169],[-3.1910857,55.9456669],[-3.1910336,55.9453714],[-3.1910336,55.9450714],[-3.1913336,55.9450714],[-3.1916336,55.9450714],[-3.1919336,55.9450714],[-3.1922291,55.9451235],[-3.1920363,55.9448937],[-3.1918434,55.9446639],[-3.1916506,55.9444341],[-3.1915006,55.9441743],[-3.1913077,55.9439445],[-3.1911577,55.9436847],[-3.1908758,55.9435821],[-3.190616,55.9434321],[-3.1903341,55.9433294],[-3.1900743,55.9431794],[-3.1897789,55.9431274],[-3.1894834,55.9430753],[-3.189188,55.9430232],[-3.189338,55.943283],[-3.189488,55.9435428],[-3.189638,55.9438026],[-3.189788,55.9440624],[-3.1895061,55.9439598],[-3.1892242,55.9438572],[-3.1889423,55.9437546],[-3.1886825,55.9436046],[-3.1884005,55.943502],[-3.1881407,55.943352],[-3.1878588,55.9432494],[-3.187599,55.9430994],[-3.1873392,55.9429494],[-3.1871094,55.9427565],[-3.1873022,55.9429863],[-3.1874951,55.9432162],[-3.1876879,55.943446],[-3.1878807,55.9436758],[-3.1880307,55.9439356],[-3.1882236,55.9441654],[-3.1883736,55.9444252]]},"properties":{}},{"type":"Feature","geometry":{"type":"Point","coordinates":[-3.189812,55.94409]},"properties":{"marker-size":"medium","location":"cliff.asleep.wedge","rgb-string":"#40ff00","marker-color":"#40ff00","marker-symbol":"lighthouse"}},{"type":"Feature","geometry":{"type":"Point","coordinates":[-3.186729,55.945168]},"properties":{"marker-size":"medium","location":"dragon.bottle.crisp","rgb-string":"#ff0000","marker-color":"#ff0000","marker-symbol":"danger"}},{"type":"Feature","geometry":{"type":"Point","coordinates":[-3.191113,55.943631]},"properties":{"marker-size":"medium","location":"loaf.cheer.slave","rgb-string":"#00ff00","marker-color":"#00ff00","marker-symbol":"lighthouse"}},{"type":"Feature","geometry":{"type":"Point","coordinates":[-3.185621,55.943065]},"properties":{"marker-size":"medium","location":"toned.deflection.bland","rgb-string":"#000000","marker-color":"#000000","marker-symbol":"cross"}},{"type":"Feature","geometry":{"type":"Point","coordinates":[-3.184754,55.943012]},"properties":{"marker-size":"medium","location":"courier.assume.bill","rgb-string":"#ffc000","marker-color":"#ffc000","marker-symbol":"danger"}},{"type":"Feature","geometry":{"type":"Point","coordinates":[-3.191257,55.945599]},"properties":{"marker-size":"medium","location":"skins.engage.best","rgb-string":"#ff4000","marker-color":"#ff4000","marker-symbol":"danger"}},{"type":"Feature","geometry":{"type":"Point","coordinates":[-3.190053,55.943173]},"properties":{"marker-size":"medium","location":"shows.fries.lamp","rgb-string":"#40ff00","marker-color":"#40ff00","marker-symbol":"lighthouse"}},{"type":"Feature","geometry":{"type":"Point","coordinates":[-3.188463,55.945761]},"properties":{"marker-size":"medium","location":"bend.tubes.chops","rgb-string":"#ff4000","marker-color":"#ff4000","marker-symbol":"danger"}},{"type":"Feature","geometry":{"type":"Point","coordinates":[-3.189186,55.945087]},"properties":{"marker-size":"medium","location":"number.exist.rate","rgb-string":"#ffc000","marker-color":"#ffc000","marker-symbol":"danger"}},{"type":"Feature","geometry":{"type":"Point","coordinates":[-3.187837,55.943227]},"properties":{"marker-size":"medium","location":"gums.clock.modes","rgb-string":"#80ff00","marker-color":"#80ff00","marker-symbol":"lighthouse"}},{"type":"Feature","geometry":{"type":"Point","coordinates":[-3.187355,55.943604]},"properties":{"marker-size":"medium","location":"shut.stands.media","rgb-string":"#80ff00","marker-color":"#80ff00","marker-symbol":"lighthouse"}},{"type":"Feature","geometry":{"type":"Point","coordinates":[-3.186537,55.944925]},"properties":{"marker-size":"medium","location":"laws.merit.bleak","rgb-string":"#ff0000","marker-color":"#ff0000","marker-symbol":"danger"}},{"type":"Feature","geometry":{"type":"Point","coordinates":[-3.18697,55.942688]},"properties":{"marker-size":"medium","location":"strut.river.surely","rgb-string":"#c0ff00","marker-color":"#c0ff00","marker-symbol":"lighthouse"}},{"type":"Feature","geometry":{"type":"Point","coordinates":[-3.185814,55.943551]},"properties":{"marker-size":"medium","location":"record.sofa.sock","rgb-string":"#000000","marker-color":"#000000","marker-symbol":"cross"}},{"type":"Feature","geometry":{"type":"Point","coordinates":[-3.186922,55.945437]},"properties":{"marker-size":"medium","location":"spent.spoon.bolt","rgb-string":"#ff8000","marker-color":"#ff8000","marker-symbol":"danger"}},{"type":"Feature","geometry":{"type":"Point","coordinates":[-3.184947,55.943443]},"properties":{"marker-size":"medium","location":"sentences.sings.modern","rgb-string":"#ffc000","marker-color":"#ffc000","marker-symbol":"danger"}},{"type":"Feature","geometry":{"type":"Point","coordinates":[-3.187018,55.943982]},"properties":{"marker-size":"medium","location":"renew.ears.tend","rgb-string":"#c0ff00","marker-color":"#c0ff00","marker-symbol":"lighthouse"}},{"type":"Feature","geometry":{"type":"Point","coordinates":[-3.192221,55.945114]},"properties":{"marker-size":"medium","location":"useful.hike.trades","rgb-string":"#c0ff00","marker-color":"#c0ff00","marker-symbol":"lighthouse"}},{"type":"Feature","geometry":{"type":"Point","coordinates":[-3.187885,55.944709]},"properties":{"marker-size":"medium","location":"hurt.green.filer","rgb-string":"#c0ff00","marker-color":"#c0ff00","marker-symbol":"lighthouse"}},{"type":"Feature","geometry":{"type":"Point","coordinates":[-3.184513,55.945302]},"properties":{"marker-size":"medium","location":"settle.title.united","rgb-string":"#ffc000","marker-color":"#ffc000","marker-symbol":"danger"}},{"type":"Feature","geometry":{"type":"Point","coordinates":[-3.187645,55.944143]},"properties":{"marker-size":"medium","location":"bound.ends.matter","rgb-string":"#80ff00","marker-color":"#80ff00","marker-symbol":"lighthouse"}},{"type":"Feature","geometry":{"type":"Point","coordinates":[-3.189957,55.94603]},"properties":{"marker-size":"medium","location":"love.behind.orchestra","rgb-string":"#ffc000","marker-color":"#ffc000","marker-symbol":"danger"}},{"type":"Feature","geometry":{"type":"Point","coordinates":[-3.185814,55.94603]},"properties":{"marker-size":"medium","location":"renew.slows.basket","rgb-string":"#ff8000","marker-color":"#ff8000","marker-symbol":"danger"}},{"type":"Feature","geometry":{"type":"Point","coordinates":[-3.186777,55.944575]},"properties":{"marker-size":"medium","location":"artist.gets.react","rgb-string":"#000000","marker-color":"#000000","marker-symbol":"cross"}},{"type":"Feature","geometry":{"type":"Point","coordinates":[-3.184658,55.943874]},"properties":{"marker-size":"medium","location":"rider.mile.lime","rgb-string":"#ffc000","marker-color":"#ffc000","marker-symbol":"danger"}},{"type":"Feature","geometry":{"type":"Point","coordinates":[-3.189234,55.943012]},"properties":{"marker-size":"medium","location":"region.passes.pencil","rgb-string":"#80ff00","marker-color":"#80ff00","marker-symbol":"lighthouse"}},{"type":"Feature","geometry":{"type":"Point","coordinates":[-3.185621,55.945761]},"properties":{"marker-size":"medium","location":"shed.desire.muddy","rgb-string":"#ff8000","marker-color":"#ff8000","marker-symbol":"danger"}},{"type":"Feature","geometry":{"type":"Point","coordinates":[-3.18933,55.945653]},"properties":{"marker-size":"medium","location":"museum.spicy.horns","rgb-string":"#ffc000","marker-color":"#ffc000","marker-symbol":"danger"}},{"type":"Feature","geometry":{"type":"Point","coordinates":[-3.191016,55.944979]},"properties":{"marker-size":"medium","location":"shapes.sheep.nature","rgb-string":"#ff4000","marker-color":"#ff4000","marker-symbol":"danger"}},{"type":"Feature","geometry":{"type":"Point","coordinates":[-3.188801,55.945437]},"properties":{"marker-size":"medium","location":"shady.soft.phones","rgb-string":"#000000","marker-color":"#000000","marker-symbol":"cross"}},{"type":"Feature","geometry":{"type":"Point","coordinates":[-3.1875,55.943874]},"properties":{"marker-size":"medium","location":"begins.spider.drips","rgb-string":"#80ff00","marker-color":"#80ff00","marker-symbol":"lighthouse"}},{"type":"Feature","geometry":{"type":"Point","coordinates":[-3.186537,55.944063]},"properties":{"marker-size":"medium","location":"lime.learns.front","rgb-string":"#ff8000","marker-color":"#ff8000","marker-symbol":"danger"}},{"type":"Feature","geometry":{"type":"Point","coordinates":[-3.18986,55.945491]},"properties":{"marker-size":"medium","location":"turkey.limit.ramp","rgb-string":"#ffc000","marker-color":"#ffc000","marker-symbol":"danger"}}]}