{"type":"FeatureCollection","features":[{"type":"Feature","geometry":{"type":"LineString","coordinates":[[-3.188396,55.944425],[-3.1881362,55.944575],[-3.1878764,55.944725],[-3.1877738,55.9444431],[-3.1876712,55.9441612],[-3.187901,55.9439683],[-3.1881308,55.9437755],[-3.1879808,55.9435157],[-3.1878308,55.9432559],[-3.1877282,55.942974],[-3.1876761,55.9426785],[-3.1875735,55.9429605],[-3.1874709,55.9432424],[-3.1873683,55.9435243],[-3.1871085,55.9433743],[-3.1868487,55.9432243],[-3.1865889,55.9430743],[-3.1863291,55.9429243],[-3.1860336,55.9429764],[-3.1857382,55.9430285],[-3.1856861,55.9433239],[-3.185634,55.9436193],[-3.1855314,55.9439013],[-3.1857912,55.9440513],[-3.186051,55.9442013],[-3.1857691,55.9443039],[-3.1855093,55.9444539],[-3.1852274,55.9445565],[-3.1852274,55.9448565],[-3.1852274,55.9451565],[-3.1852795,55.9454519],[-3.1852795,55.9457519],[-3.1853316,55.9460473],[-3.1856135,55.9459447],[-3.1858954,55.9458421],[-3.1861908,55.94579],[-3.1864863,55.9457379],[-3.1867682,55.9456353],[-3.186961,55.9454055],[-3.1871538,55.9456353],[-3.1874357,55.9455327],[-3.1877312,55.9454806],[-3.1880266,55.9454285],[-3.1883221,55.9453765],[-3.1885819,55.9452265],[-3.1888773,55.9451744],[-3.1891592,55.9450718],[-3.1891071,55.9447763],[-3.189055,55.9444809],[-3.1890029,55.9441854],[-3.1889508,55.94389],[-3.1892463,55.9438379],[-3.1895463,55.9438379],[-3.1897391,55.9436081],[-3.189932,55.9433783],[-3.190082,55.9431185],[-3.1898891,55.9428886],[-3.1897391,55.9426288],[-3.1897391,55.9429288],[-3.1894437,55.9429809],[-3.1891482,55.943033],[-3.1894482,55.943033],[-3.1897482,55.943033],[-3.1900482,55.943033],[-3.1903482,55.943033],[-3.1906437,55.9430851],[-3.1909437,55.9430851],[-3.1912391,55.943033],[-3.191187,55.9433285],[-3.1911349,55.9436239],[-3.1911349,55.9439239],[-3.1910828,55.9442193],[-3.1910828,55.9445193],[-3.1910307,55.9448148],[-3.1910307,55.9451148],[-3.1913262,55.9451669],[-3.1916216,55.945219],[-3.1919171,55.9451669],[-3.1922125,55.9451148],[-3.1919827,55.9453076],[-3.1917529,55.9455005],[-3.1915231,55.9456933],[-3.1912933,55.9458861],[-3.1911907,55.9456042],[-3.1910881,55.9453223],[-3.1909381,55.9450625],[-3.1908354,55.9447806],[-3.1906854,55.9445208],[-3.1905828,55.9442389],[-3.1904328,55.9439791],[-3.1901374,55.943927],[-3.189842,55.9438749],[-3.1895465,55.9438228],[-3.1892511,55.9437707],[-3.1889556,55.9437186],[-3.1886602,55.9436665],[-3.1883647,55.9436144],[-3.1880693,55.9435623],[-3.1877739,55.9435102],[-3.1874784,55.9434581],[-3.187183,55.943406],[-3.1868875,55.9433539],[-3.1865921,55.943406],[-3.1862921,55.943406],[-3.1859966,55.9433539],[-3.1857147,55.9432513],[-3.1854193,55.9431992],[-3.1851374,55.9430966],[-3.1848419,55.9430445],[-3.1851239,55.9431472],[-3.1854058,55.9432498],[-3.1856877,55.9433524],[-3.1859696,55.943455],[-3.1862515,55.9435576],[-3.1865334,55.9436602],[-3.1868153,55.9437628],[-3.1870972,55.9438654],[-3.1873791,55.943968],[-3.187661,55.9440706],[-3.1879208,55.9442206],[-3.1882027,55.9443232]]},"properties":{}},{"type":"Feature","geometry":{"type":"Point","coordinates":[-3.189764,55.942661]},"properties":{"marker-size":"medium","location":"hooked.shine.third","rgb-string":"#40ff00","marker-color":"#40ff00","marker-symbol":"lighthouse"}},{"type":"Feature","geometry":{"type":"Point","coordinates":[-3.190438,55.943982]},"properties":{"marker-size":"medium","location":"pump.wheels.hulk","rgb-string":"#40ff00","marker-color":"#40ff00","marker-symbol":"lighthouse"}},{"type":"Feature","geometry":{"type":"Point","coordinates":[-3.191161,55.945976]},"properties":{"marker-size":"medium","location":"simple.rust.audio","rgb-string":"#ff0000","marker-color":"#ff0000","marker-symbol":"danger"}},{"type":"Feature","geometry":{"type":"Point","coordinates":[-3.191065,55.94444]},"properties":{"marker-size":"medium","location":"paying.crowd.weep","rgb-string":"#40ff00","marker-color":"#40ff00","marker-symbol":"lighthouse"}},{"type":"Feature","geometry":{"type":"Point","coordinates":[-3.186103,55.944251]},"properties":{"marker-size":"medium","location":"organs.shape.fantastic","rgb-string":"#ffc000","marker-color":"#ffc000","marker-symbol":"danger"}},{"type":"Feature","geometry":{"type":"Point","coordinates":[-3.187837,55.943227]},"properties":{"marker-size":"medium","location":"gums.clock.modes","rgb-string":"#c0ff00","marker-color":"#c0ff00","marker-symbol":"lighthouse"}},{"type":"Feature","geometry":{"type":"Point","coordinates":[-3.186344,55.942958]},"properties":{"marker-size":"medium","location":"hers.banks.goat","rgb-string":"#ffc000","marker-color":"#ffc000","marker-symbol":"danger"}},{"type":"Feature","geometry":{"type":"Point","coordinates":[-3.186922,55.945437]},"properties":{"marker-size":"medium","location":"spent.spoon.bolt","rgb-string":"#ff4000","marker-color":"#ff4000","marker-symbol":"danger"}},{"type":"Feature","geometry":{"type":"Point","coordinates":[-3.189619,55.94382]},"properties":{"marker-size":"medium","location":"burn.spot.across","rgb-string":"#40ff00","marker-color":"#40ff00","marker-symbol":"lighthouse"}},{"type":"Feature","geometry":{"type":"Point","coordinates":[-3.187645,55.944143]},"properties":{"marker-size":"medium","location":"bound.ends.matter","rgb-string":"#40ff00","marker-color":"#40ff00","marker-symbol":"lighthouse"}},{"type":"Feature","geometry":{"type":"Point","coordinates":[-3.189234,55.943012]},"properties":{"marker-size":"medium","location":"region.passes.pencil","rgb-string":"#40ff00","marker-color":"#40ff00","marker-symbol":"lighthouse"}},{"type":"Feature","geometry":{"type":"Point","coordinates":[-3.190053,55.943173]},"properties":{"marker-size":"medium","location":"shows.fries.lamp","rgb-string":"#40ff00","marker-color":"#40ff00","marker-symbol":"lighthouse"}},{"type":"Feature","geometry":{"type":"Point","coordinates":[-3.190727,55.943092]},"properties":{"marker-size":"medium","location":"relate.chill.vest","rgb-string":"#000000","marker-color":"#000000","marker-symbol":"cross"}},{"type":"Feature","geometry":{"type":"Point","coordinates":[-3.191113,55.94417]},"properties":{"marker-size":"medium","location":"hills.giant.crate","rgb-string":"#00ff00","marker-color":"#00ff00","marker-symbol":"lighthouse"}},{"type":"Feature","geometry":{"type":"Point","coordinates":[-3.188126,55.943793]},"properties":{"marker-size":"medium","location":"cubs.trucks.help","rgb-string":"#40ff00","marker-color":"#40ff00","marker-symbol":"lighthouse"}},{"type":"Feature","geometry":{"type":"Point","coordinates":[-3.189186,55.945087]},"properties":{"marker-size":"medium","location":"number.exist.rate","rgb-string":"#c0ff00","marker-color":"#c0ff00","marker-symbol":"lighthouse"}},{"type":"Feature","geometry":{"type":"Point","coordinates":[-3.185525,55.943982]},"properties":{"marker-size":"medium","location":"manliness.poem.cliff","rgb-string":"#ff8000","marker-color":"#ff8000","marker-symbol":"danger"}},{"type":"Feature","geometry":{"type":"Point","coordinates":[-3.186296,55.945761]},"properties":{"marker-size":"medium","location":"posts.kicked.universally","rgb-string":"#ff8000","marker-color":"#ff8000","marker-symbol":"danger"}},{"type":"Feature","geometry":{"type":"Point","coordinates":[-3.188704,55.945168]},"properties":{"marker-size":"medium","location":"rooms.lamp.teach","rgb-string":"#ff8000","marker-color":"#ff8000","marker-symbol":"danger"}},{"type":"Feature","geometry":{"type":"Point","coordinates":[-3.188945,55.943928]},"properties":{"marker-size":"medium","location":"noted.friday.jams","rgb-string":"#40ff00","marker-color":"#40ff00","marker-symbol":"lighthouse"}},{"type":"Feature","geometry":{"type":"Point","coordinates":[-3.184754,55.943012]},"properties":{"marker-size":"medium","location":"courier.assume.bill","rgb-string":"#ff8000","marker-color":"#ff8000","marker-symbol":"danger"}},{"type":"Feature","geometry":{"type":"Point","coordinates":[-3.192221,55.945114]},"properties":{"marker-size":"medium","location":"useful.hike.trades","rgb-string":"#ff8000","marker-color":"#ff8000","marker-symbol":"danger"}},{"type":"Feature","geometry":{"type":"Point","coordinates":[-3.187355,55.943604]},"properties":{"marker-size":"medium","location":"shut.stands.media","rgb-string":"#000000","marker-color":"#000000","marker-symbol":"cross"}},{"type":"Feature","geometry":{"type":"Point","coordinates":[-3.185332,55.946138]},"properties":{"marker-size":"medium","location":"prime.rent.silk","rgb-string":"#ff8000","marker-color":"#ff8000","marker-symbol":"danger"}},{"type":"Feature","geometry":{"type":"Point","coordinates":[-3.187693,55.942769]},"properties":{"marker-size":"medium","location":"panic.squad.danger","rgb-string":"#ffc000","marker-color":"#ffc000","marker-symbol":"danger"}},{"type":"Feature","geometry":{"type":"Point","coordinates":[-3.185236,55.944575]},"properties":{"marker-size":"medium","location":"acid.chair.butter","rgb-string":"#ff0000","marker-color":"#ff0000","marker-symbol":"danger"}},{"type":"Feature","geometry":{"type":"Point","coordinates":[-3.191016,55.945248]},"properties":{"marker-size":"medium","location":"maple.limit.hotels","rgb-string":"#ff8000","marker-color":"#ff8000","marker-symbol":"danger"}},{"type":"Feature","geometry":{"type":"Point","coordinates":[-3.191594,55.945195]},"properties":{"marker-size":"medium","location":"hills.feels.tunes","rgb-string":"#ff8000","marker-color":"#ff8000","marker-symbol":"danger"}},{"type":"Feature","geometry":{"type":"Point","coordinates":[-3.186729,55.945653]},"properties":{"marker-size":"medium","location":"hidden.handle.softly","rgb-string":"#ff0000","marker-color":"#ff0000","marker-symbol":"danger"}},{"type":"Feature","geometry":{"type":"Point","coordinates":[-3.191161,55.943065]},"properties":{"marker-size":"medium","location":"else.urban.museum","rgb-string":"#00ff00","marker-color":"#00ff00","marker-symbol":"lighthouse"}},{"type":"Feature","geometry":{"type":"Point","coordinates":[-3.189908,55.942904]},"properties":{"marker-size":"medium","location":"second.launch.miles","rgb-string":"#40ff00","marker-color":"#40ff00","marker-symbol":"lighthouse"}},{"type":"Feature","geometry":{"type":"Point","coordinates":[-3.187885,55.944709]},"properties":{"marker-size":"medium","location":"hurt.green.filer","rgb-string":"#ffc000","marker-color":"#ffc000","marker-symbol":"danger"}},{"type":"Feature","geometry":{"type":"Point","coordinates":[-3.185621,55.943065]},"properties":{"marker-size":"medium","location":"toned.deflection.bland","rgb-string":"#c0ff00","marker-color":"#c0ff00","marker-symbol":"lighthouse"}}]}